distribution_center,name,demand,latitude,longitude
1,Marzipan Metropolis,840,47.95,-101.2
2,Soda Pop Springs,587,43.26,-111.84
3,Molten Mocha Marsh,659,38.82,-87.48
4,Mallow Melt Mountains,543,42.91,-105.87
5,Pineapple Pop Paradise,978,49.06,-104.74
6,Vanilla Valley,690,39.83,-114.04
